City_ID,City,Lat,Lng,Max Temp,Humidity,Cloudiness,Wind Speed,Country,Date
0,codrington,-38.2667,141.9667,10.01,99,78,1.63,AU,2023-11-07 19:00:35
1,isoka,-10.1606,32.6335,21.46,69,100,0.33,ZM,2023-11-07 19:00:38
2,puerto natales,-51.7236,-72.4875,10.25,53,75,10.29,CL,2023-11-07 19:00:40
3,yellowknife,62.456,-114.3525,-4.77,97,100,3.09,CA,2023-11-07 19:00:43
4,klyuchi,52.2667,79.1667,-1.89,77,69,2.14,RU,2023-11-07 19:00:45
5,carnarvon,-24.8667,113.6333,20.53,76,0,7.9,AU,2023-11-07 19:00:21
6,port elizabeth,-33.918,25.5701,16.29,82,0,6.17,ZA,2023-11-07 19:00:49
7,georgetown,5.4112,100.3354,28.3,92,20,1.54,MY,2023-11-07 19:00:18
8,labrador city,52.9463,-66.9114,-7.05,86,100,4.63,CA,2023-11-07 19:00:19
9,arraial do cabo,-22.9661,-42.0278,25.98,53,0,5.66,BR,2023-11-07 19:00:52
10,blackmans bay,-43.0167,147.3167,12.07,95,100,1.08,AU,2023-11-07 19:00:53
11,urucara,-2.5364,-57.76,25.36,94,100,1.09,BR,2023-11-07 19:00:54
12,udachny,66.4167,112.4,-22.45,100,82,0.99,RU,2023-11-07 19:00:56
13,grytviken,-54.2811,-36.5092,6.3,66,38,2.89,GS,2023-11-07 19:00:57
14,avarua,-21.2078,-159.775,24.03,50,96,7.72,CK,2023-11-07 19:00:58
15,qashyr,53.0675,76.1036,1.09,49,29,2.62,KZ,2023-11-07 19:00:59
16,tura,25.5198,90.2201,17.1,81,0,1.15,IN,2023-11-07 19:01:00
17,olonkinbyen,70.9221,-8.7187,0.85,72,100,2.51,SJ,2023-11-07 19:01:03
18,west island,-12.1568,96.8225,25.99,83,40,4.63,CC,2023-11-07 19:01:04
19,vila franca do campo,37.7167,-25.4333,20.49,99,98,5.6,PT,2023-11-07 19:01:05
20,cassolnovo,45.3612,8.8086,11.21,93,0,1.32,IT,2023-11-07 19:01:07
21,talnakh,69.4865,88.3972,-10.44,76,100,9.38,RU,2023-11-07 19:01:08
22,chibougamau,49.9168,-74.3659,-3.21,86,100,6.17,CA,2023-11-07 19:01:09
23,selkirk,50.1436,-96.8845,0.1,87,99,3.58,CA,2023-11-07 19:01:10
24,waitangi,-43.9535,-176.5597,13.23,97,100,1.34,NZ,2023-11-07 19:01:12
25,adamstown,-25.066,-130.1015,22.72,84,100,9.45,PN,2023-11-07 19:01:13
26,cadale,2.7603,46.3222,26.21,83,100,3.27,SO,2023-11-07 19:01:15
27,san rafael del yuma,18.4299,-68.6739,30.11,64,92,2.86,DO,2023-11-07 19:01:16
28,port mathurin,-19.6833,63.4167,25.07,76,5,5.15,MU,2023-11-07 19:01:06
29,bilibino,68.0546,166.4372,-15.04,96,100,1.49,RU,2023-11-07 19:01:19
30,puerto ayora,-0.7393,-90.3518,28.98,74,22,4.02,EC,2023-11-07 19:01:21
31,college,64.8569,-147.8028,-7.03,84,100,0.0,US,2023-11-07 19:01:23
32,bredasdorp,-34.5322,20.0403,13.69,63,85,1.06,ZA,2023-11-07 19:01:25
33,wailua homesteads,22.0669,-159.378,25.42,87,100,2.68,US,2023-11-07 19:01:26
34,san luis de la loma,17.2706,-100.8939,31.94,65,100,2.44,MX,2023-11-07 19:01:27
35,levuka,50.1834,-105.4011,-0.1,99,100,1.12,CA,2023-11-07 19:01:28
36,prince george,53.9166,-122.753,5.69,50,0,7.72,CA,2023-11-07 18:56:39
37,woods creek,47.8787,-121.8985,11.57,80,70,1.79,US,2023-11-07 19:01:31
38,afaahiti,-17.75,-149.2833,25.93,84,89,10.26,PF,2023-11-07 19:01:32
39,waitara,-38.925,174.25,10.55,70,29,6.5,NZ,2023-11-07 19:01:34
40,walvis bay,-22.9575,14.5053,17.53,72,0,6.17,NA,2023-11-07 19:01:37
41,hamilton,39.1834,-84.5333,23.69,40,65,2.24,US,2023-11-07 19:01:38
42,coquimbo,-29.9533,-71.3436,19.85,59,0,6.69,CL,2023-11-07 19:01:40
43,port-aux-francais,-49.35,70.2167,3.43,79,45,11.0,TF,2023-11-07 19:01:41
44,juan griego,11.0817,-63.9655,30.19,70,100,3.46,VE,2023-11-07 19:01:42
45,punta arenas,-53.15,-70.9167,7.06,76,75,4.63,CL,2023-11-07 18:59:38
46,veraval,20.9,70.3667,27.53,57,100,0.83,IN,2023-11-07 19:01:44
47,bethel,41.3712,-73.414,18.64,68,39,0.89,US,2023-11-07 19:01:46
48,east end,34.5507,-92.341,25.07,49,0,5.17,US,2023-11-07 19:01:48
49,kavaratti,10.5669,72.642,28.27,74,48,1.77,IN,2023-11-07 19:01:50
50,san patricio,28.017,-97.5169,30.4,39,88,5.57,US,2023-11-07 19:01:51
51,bubaque,11.2833,-15.8333,29.24,74,11,5.15,GW,2023-11-07 19:01:53
52,mount gambier,-37.8333,140.7667,8.87,97,42,1.53,AU,2023-11-07 19:01:55
53,albany,42.6001,-73.9662,16.64,67,64,0.45,US,2023-11-07 18:52:27
54,ushuaia,-54.8,-68.3,7.81,50,75,11.18,AR,2023-11-07 19:00:05
55,ta`u,-14.2336,-169.5144,26.48,86,100,8.79,AS,2023-11-07 19:01:59
56,isafjordur,66.0755,-23.124,1.02,75,20,1.54,IS,2023-11-07 19:02:01
57,aasiaat,68.7098,-52.8699,-7.83,75,99,6.11,GL,2023-11-07 19:02:03
58,constantia,44.1833,28.65,13.38,63,100,3.34,RO,2023-11-07 19:00:54
59,uturoa,-16.7333,-151.4333,25.31,79,93,10.91,PF,2023-11-07 19:02:06
60,ust'-ilimsk,58.0006,102.6619,-14.76,99,79,0.89,RU,2023-11-07 19:02:09
61,iqaluit,63.7506,-68.5145,-8.15,79,100,2.57,CA,2023-11-07 19:02:11
62,licata,37.1071,13.9461,21.8,88,10,2.8,IT,2023-11-07 19:02:12
63,nouadhibou,20.931,-17.0347,21.99,64,0,9.26,MR,2023-11-07 19:02:14
64,margaret river,-33.95,115.0667,10.52,92,44,3.23,AU,2023-11-07 19:02:15
65,dahlonega,34.5326,-83.9849,26.06,43,0,3.44,US,2023-11-07 19:00:00
66,qui nhon,13.7667,109.2333,24.88,88,100,2.37,VN,2023-11-07 19:02:18
67,nemuro,43.3236,145.575,9.47,74,1,9.13,JP,2023-11-07 19:02:19
68,elko,41.0002,-115.5012,6.75,50,100,7.15,US,2023-11-07 19:02:21
69,vilyuysk,63.7553,121.6247,-27.01,99,37,1.81,RU,2023-11-07 19:02:23
70,salekhard,66.53,66.6019,0.54,99,100,2.24,RU,2023-11-07 19:02:25
71,zakynthos,37.7914,20.8953,18.13,69,7,2.82,GR,2023-11-07 19:02:27
72,salinopolis,-0.6136,-47.3561,29.09,70,100,5.86,BR,2023-11-07 19:02:28
73,papao,-17.75,-149.55,26.82,85,96,10.71,PF,2023-11-07 19:02:29
74,tiksi,71.6872,128.8694,-23.43,96,79,3.27,RU,2023-11-07 19:02:31
75,longyearbyen,78.2186,15.6401,-12.09,79,40,4.63,SJ,2023-11-07 19:02:33
76,newman,37.3138,-121.0208,18.36,61,0,3.13,US,2023-11-07 19:02:34
77,gamba,-2.65,10.0,25.46,89,63,4.33,GA,2023-11-07 19:02:35
78,sao jose da coroa grande,-8.8978,-35.1478,27.7,66,43,4.7,BR,2023-11-07 19:02:37
79,sisimiut,66.9395,-53.6735,-5.33,61,100,4.15,GL,2023-11-07 19:02:38
80,vorgashor,67.5833,63.95,0.21,99,100,2.86,RU,2023-11-07 19:02:40
81,vikhorevka,56.1201,101.1636,-9.23,97,50,1.29,RU,2023-11-07 19:02:41
82,jiquilpan de juarez,19.9833,-102.7167,26.49,35,21,1.38,MX,2023-11-07 19:02:42
83,port macquarie,-31.4333,152.9167,12.16,90,19,2.89,AU,2023-11-07 18:58:15
84,chonchi,-42.6128,-73.8092,13.4,57,100,3.89,CL,2023-11-07 19:02:44
85,imbituba,-28.24,-48.6703,22.25,66,0,8.2,BR,2023-11-07 19:02:46
86,eatonton,33.3268,-83.3885,26.6,48,0,2.6,US,2023-11-07 19:02:48
87,eufaula,31.8913,-85.1455,27.3,40,0,2.06,US,2023-11-07 19:02:49
88,palmer,42.1584,-72.3287,19.12,60,75,5.14,US,2023-11-07 19:02:50
89,zhenzhou,32.2692,119.1789,12.72,67,37,3.0,CN,2023-11-07 19:02:52
90,greenville,35.6127,-77.3663,27.09,40,0,3.6,US,2023-11-07 19:02:53
91,akureyri,65.6835,-18.0878,-7.04,93,20,0.0,IS,2023-11-07 19:02:54
92,hawaiian paradise park,19.5933,-154.9731,26.04,90,56,0.89,US,2023-11-07 19:02:56
93,lerwick,60.1545,-1.1494,4.0,80,93,1.42,GB,2023-11-07 19:02:57
94,sovetsk,55.0839,21.8785,8.75,78,100,4.75,RU,2023-11-07 19:02:58
95,stanley,54.868,-1.6985,7.62,90,20,3.6,GB,2023-11-07 19:03:00
96,usinsk,65.9939,57.5281,1.71,100,100,6.26,RU,2023-11-07 19:03:01
97,saint-philippe,-21.3585,55.7679,22.77,89,100,4.99,RE,2023-11-07 19:03:05
98,hammerfest,70.6634,23.6821,1.25,86,75,2.57,NO,2023-11-07 19:03:06
99,kapuskasing,49.4169,-82.4331,-1.95,69,75,5.66,CA,2023-11-07 19:00:12
100,teknaf,20.8624,92.3058,21.57,73,77,3.16,BD,2023-11-07 19:03:12
101,wolsztyn,52.1155,16.1171,9.42,76,98,3.93,PL,2023-11-07 19:03:13
102,nanning,22.8167,108.3167,20.25,81,72,1.19,CN,2023-11-07 19:03:15
103,edinburgh of the seven seas,-37.0676,-12.3116,15.75,88,90,15.92,SH,2023-11-07 19:03:16
104,mangrol,21.1167,70.1167,27.27,62,48,1.58,IN,2023-11-07 19:03:17
105,mil'kovo,55.6078,37.7956,9.12,85,100,4.67,RU,2023-11-07 19:03:19
106,scottburgh,-30.2867,30.7532,17.86,79,100,6.46,ZA,2023-11-07 18:59:14
107,fort bragg,35.139,-79.006,27.58,34,0,4.12,US,2023-11-07 19:03:21
108,port moresby,-9.4431,147.1797,23.38,92,93,2.99,PG,2023-11-07 19:03:22
109,murghob,38.1702,73.9667,-2.33,50,21,1.82,TJ,2023-11-07 19:03:23
110,whitehorse,60.7161,-135.0538,-2.33,80,75,6.17,CA,2023-11-07 19:00:46
111,la passe,45.5549,-0.8967,10.13,81,79,3.56,FR,2023-11-07 19:03:26
112,waingapu,-9.6567,120.2641,26.46,78,13,0.58,ID,2023-11-07 19:03:27
113,mount darwin,-16.7725,31.5838,28.67,32,89,1.58,ZW,2023-11-07 19:03:29
114,t'ongch'on-up,38.9539,127.8917,4.95,50,22,2.5,KP,2023-11-07 19:03:31
115,margate,51.3813,1.3862,9.83,80,14,2.68,GB,2023-11-07 19:02:30
116,ilulissat,69.2167,-51.1,0.01,43,75,7.72,GL,2023-11-07 19:03:34
117,barreirinhas,-2.7469,-42.8264,30.64,53,10,7.02,BR,2023-11-07 19:03:35
118,atafu village,-8.5421,-172.5159,28.67,78,100,6.69,TK,2023-11-07 19:03:37
119,fayroz koh,34.5195,65.2509,7.05,74,100,1.47,AF,2023-11-07 19:03:38
120,harper,4.375,-7.7169,26.26,86,23,3.67,LR,2023-11-07 19:03:39
121,amalapuram,16.5833,82.0167,24.95,90,80,1.78,IN,2023-11-07 19:03:41
122,tolanaro,-25.0319,46.9987,24.04,73,20,10.8,MG,2023-11-07 19:03:43
123,kiama,-34.6833,150.8667,17.36,87,71,3.59,AU,2023-11-07 19:03:45
124,lebu,-37.6167,-73.65,13.21,74,30,3.8,CL,2023-11-07 19:02:56
125,georgievka,49.3314,81.5761,-1.73,56,94,1.86,KZ,2023-11-07 19:03:47
126,bayramaly,37.6185,62.1671,17.86,48,97,3.04,TM,2023-11-07 19:03:49
127,mount pearl,47.5166,-52.7813,4.52,63,100,1.34,CA,2023-11-07 19:03:50
128,poronaysk,49.2167,143.1167,-0.16,84,100,7.48,RU,2023-11-07 19:03:51
129,merizo village,13.2658,144.6691,26.99,93,29,5.33,GU,2023-11-07 19:03:52
130,invercargill,-46.4,168.35,8.9,91,100,0.89,NZ,2023-11-07 19:03:54
131,port hedland,-20.3167,118.5667,25.03,53,4,3.09,AU,2023-11-07 19:03:55
132,launceston,-41.45,147.1667,13.78,100,95,3.6,AU,2023-11-07 19:03:57
133,pickering,43.9001,-79.1329,8.15,73,100,8.23,CA,2023-11-07 19:03:59
134,kattivakkam,13.2167,80.3167,26.71,88,95,1.9,IN,2023-11-07 19:04:01
135,itoman,26.1247,127.6694,21.01,73,20,3.09,JP,2023-11-07 19:04:02
136,luebo,-5.35,21.4167,25.64,72,80,0.1,CD,2023-11-07 19:04:03
137,morehead city,34.7229,-76.726,24.44,65,0,4.63,US,2023-11-07 19:00:03
138,machali,-34.1833,-70.6667,20.6,49,20,4.12,CL,2023-11-07 19:01:21
139,wynyard,-41.0,145.7167,15.28,88,100,5.49,AU,2023-11-07 19:04:09
140,tralee,52.2704,-9.7026,7.97,89,100,3.5,IE,2023-11-07 19:04:10
141,ust-nera,64.5667,143.2,-27.26,99,99,0.13,RU,2023-11-07 19:04:12
142,nalgonda,17.05,79.2667,23.49,89,29,2.18,IN,2023-11-07 19:04:13
143,olinda,-8.0089,-34.8553,27.85,69,75,4.12,BR,2023-11-07 19:03:48
144,kupang,-10.1667,123.5833,26.32,89,100,2.57,ID,2023-11-07 19:04:16
145,rongelap,11.1635,166.8941,28.09,79,76,9.34,MH,2023-11-07 19:04:17
146,papatowai,-46.5619,169.4708,8.52,87,100,2.24,NZ,2023-11-07 19:04:18
147,colonia,50.9333,6.95,9.9,79,100,3.6,DE,2023-11-07 19:02:22
148,hadibu,12.65,54.0333,26.44,73,25,3.57,YE,2023-11-07 19:04:21
149,yigou,35.8114,114.3167,11.3,73,0,1.28,CN,2023-11-07 19:04:22
150,ribeira grande,38.5167,-28.7,20.43,94,75,8.05,PT,2023-11-07 19:04:24
151,conceicao do araguaia,-8.2578,-49.2647,33.93,44,87,2.85,BR,2023-11-07 19:02:20
152,brokopondo,4.75,-55.1667,34.61,46,10,1.44,SR,2023-11-07 19:04:26
153,mankono,8.0586,-6.1897,26.0,73,14,2.9,CI,2023-11-07 19:04:27
154,torbat-e heydariyeh,35.274,59.2195,12.97,57,90,1.42,IR,2023-11-07 19:04:29
155,mulayjah,27.271,48.4242,24.56,52,0,1.4,SA,2023-11-07 19:04:31
156,mukalla,14.5425,49.1242,26.51,69,99,0.38,YE,2023-11-07 19:04:32
157,idri,27.5,13.2667,24.9,18,0,3.41,LY,2023-11-07 19:04:34
158,svendborg,55.0598,10.6068,9.36,88,99,9.24,DK,2023-11-07 19:04:35
159,enewetak,11.3474,162.3373,28.34,71,99,10.04,MH,2023-11-07 19:04:37
160,ust'-uda,54.1742,103.0304,-12.92,95,29,1.46,RU,2023-11-07 19:04:38
161,pachperwa,27.5167,82.65,18.59,55,0,1.86,IN,2023-11-07 19:04:39
162,puerto san jose,13.9256,-90.8244,29.49,75,27,2.06,GT,2023-11-07 19:04:41
163,utrik,11.2278,169.8474,27.86,78,100,10.38,MH,2023-11-07 19:04:42
164,cururupu,-1.8283,-44.8683,29.96,60,97,3.46,BR,2023-11-07 19:04:43
165,uzgen,40.7699,73.3007,7.16,23,99,1.71,KG,2023-11-07 19:04:44
166,tottori,35.5,134.2333,12.89,72,14,1.2,JP,2023-11-07 19:04:46
167,saint-pierre,-21.3393,55.4781,22.82,94,75,6.69,RE,2023-11-07 19:04:48
168,ndele,8.4109,20.6473,25.55,64,31,1.18,CF,2023-11-07 19:04:49
169,okondja,-0.6549,13.6753,23.11,96,100,0.71,GA,2023-11-07 19:04:51
170,kapa'a,22.0752,-159.319,26.18,80,75,8.23,US,2023-11-07 19:04:52
171,campbellton,48.0075,-66.6727,2.25,99,100,3.14,CA,2023-11-07 19:04:53
172,kutum,14.2,24.6667,25.33,21,27,6.72,SD,2023-11-07 19:04:54
173,howard springs,-12.497,131.047,26.95,88,17,2.57,AU,2023-11-07 19:04:55
174,candido mendes,-1.4467,-45.7167,29.89,62,67,3.95,BR,2023-11-07 19:04:33
175,crane,31.3974,-102.3501,29.22,19,0,3.35,US,2023-11-07 19:04:58
176,remire-montjoly,4.9167,-52.2667,32.02,66,20,4.63,GF,2023-11-07 19:04:59
177,monrovia,6.3005,-10.7969,24.87,85,6,3.58,LR,2023-11-07 19:05:00
178,masaya sur,16.497,121.7456,23.07,96,75,0.43,PH,2023-11-07 19:05:02
179,sola,-13.8833,167.55,25.37,94,100,4.12,VU,2023-11-07 19:05:05
180,pudozh,61.8099,36.5345,2.19,96,100,4.02,RU,2023-11-07 19:05:06
181,dombarovskiy,50.7587,59.5386,3.89,55,40,4.47,RU,2023-11-07 19:05:07
182,richards bay,-28.783,32.0377,19.0,91,100,7.33,ZA,2023-11-07 19:05:08
183,sao raimundo das mangabeiras,-7.0219,-45.4811,27.55,69,100,1.95,BR,2023-11-07 19:05:11
184,teple,48.3086,39.5737,9.6,69,0,4.43,UA,2023-11-07 19:05:12
185,jamestown,42.097,-79.2353,10.29,82,100,5.66,US,2023-11-07 19:00:49
186,carutapera,-1.195,-46.02,29.79,63,94,4.77,BR,2023-11-07 19:05:00
187,kidal,18.4411,1.4078,29.18,9,73,1.42,ML,2023-11-07 19:05:16
188,flying fish cove,-10.4217,105.6791,24.82,88,75,2.57,CX,2023-11-07 19:05:18
189,kodiak,57.79,-152.4072,0.73,86,100,0.0,US,2023-11-07 19:05:20
190,quellon,-43.1167,-73.6167,13.15,58,100,3.66,CL,2023-11-07 19:05:21
191,sao vicente,-23.9631,-46.3919,30.1,41,0,5.14,BR,2023-11-07 19:05:23
192,tidjikja,18.5564,-11.4271,26.22,26,100,4.53,MR,2023-11-07 19:05:24
193,saipan,15.1355,145.701,28.35,75,55,6.6,MP,2023-11-07 19:03:11
194,cabo san lucas,22.8909,-109.9124,32.09,56,96,2.41,MX,2023-11-07 18:51:32
195,glace bay,46.1969,-59.957,7.93,79,100,5.14,CA,2023-11-07 19:05:28
196,cuamba,-14.8031,36.5372,28.89,37,13,1.83,MZ,2023-11-07 19:02:25
197,lembeni,-3.7833,37.6167,21.45,85,100,2.45,TZ,2023-11-07 19:05:31
198,monor,47.3513,19.4473,11.05,93,100,0.51,HU,2023-11-07 19:05:32
199,port blair,11.6667,92.75,26.02,94,40,1.03,IN,2023-11-07 19:05:33
200,ust-tsilma,65.441,52.1498,2.01,99,100,3.13,RU,2023-11-07 19:05:34
201,lionel town,17.8101,-77.2406,31.94,64,32,3.24,JM,2023-11-07 19:05:36
202,port lincoln,-34.7333,135.8667,13.4,87,94,4.74,AU,2023-11-07 19:05:37
203,galesong,-5.3166,119.3661,24.01,71,64,2.61,ID,2023-11-07 19:05:38
204,okhotsk,59.3833,143.3,-16.93,78,2,6.65,RU,2023-11-07 19:05:39
205,cheremushki,52.8356,91.3944,-9.55,98,100,0.25,RU,2023-11-07 19:05:41
206,tazacorte,28.629,-17.9293,21.19,69,75,6.69,ES,2023-11-07 19:05:41
207,st. paul,44.9444,-93.0933,7.38,76,100,4.12,US,2023-11-07 19:02:45
208,yamada,39.4667,141.95,9.85,71,15,2.98,JP,2023-11-07 19:05:44
209,hermanus,-34.4187,19.2345,14.93,68,100,2.08,ZA,2023-11-07 19:05:45
210,bamboo flat,11.7,92.7167,26.05,94,40,1.03,IN,2023-11-07 19:05:46
211,saint-joseph,-21.3667,55.6167,22.21,86,100,5.02,RE,2023-11-07 19:05:47
212,guerrero negro,27.9769,-114.0611,23.5,58,0,7.13,MX,2023-11-07 19:05:49
213,penafiel,41.2084,-8.2829,11.51,86,100,1.14,PT,2023-11-07 19:05:50
214,duong dong,10.2167,103.9667,25.0,94,40,0.0,VN,2023-11-07 19:05:52
215,kununurra,-15.7667,128.7333,25.99,78,0,1.54,AU,2023-11-07 19:05:54
216,ambon,-3.6954,128.1814,26.16,14,40,2.57,ID,2023-11-07 19:05:55
217,vila velha,-20.3297,-40.2925,24.97,69,20,7.2,BR,2023-11-07 19:05:56
218,bondoukou,8.0333,-2.8,26.99,67,83,2.27,CI,2023-11-07 19:05:58
219,ngereklmadel,7.4883,134.4856,25.05,94,75,0.0,PW,2023-11-07 19:05:59
220,port saint john's,-31.6229,29.5448,18.86,77,100,5.38,ZA,2023-11-07 19:06:00
221,saudarkrokur,65.7461,-19.6394,-0.04,68,0,2.58,IS,2023-11-07 19:06:01
222,suva,-18.1416,178.4415,23.71,94,40,1.54,FJ,2023-11-07 19:06:02
223,thompson,55.7435,-97.8558,-2.91,74,75,1.54,CA,2023-11-07 19:01:43
224,shemysheyka,52.892,45.3928,8.35,94,94,4.87,RU,2023-11-07 19:06:04
225,sept-iles,50.2001,-66.3821,0.59,97,100,8.75,CA,2023-11-07 19:01:24
226,nuku'alofa,-21.1333,-175.2,25.19,83,40,5.14,TO,2023-11-07 19:06:09
227,touros,-5.1989,-35.4608,27.92,62,99,6.56,BR,2023-11-07 19:06:10
228,kuta,-8.7233,115.1723,25.97,94,40,2.68,ID,2023-11-07 19:06:12
229,laojunmiao,39.8333,97.7333,1.46,35,100,1.25,CN,2023-11-07 19:06:14
230,el porvenir,13.7617,-87.3458,28.63,70,89,0.67,HN,2023-11-07 19:06:15
231,alice springs,-23.7,133.8833,18.75,24,41,0.0,AU,2023-11-07 19:02:35
232,sitka,57.0531,-135.33,4.94,87,40,4.63,US,2023-11-07 19:06:18
233,nuuk,64.1835,-51.7216,0.34,59,75,3.09,GL,2023-11-07 19:06:19
234,fortaleza,-3.7227,-38.5247,31.71,62,0,7.2,BR,2023-11-07 18:58:47
235,beau vallon,-20.4189,57.6953,24.13,88,75,3.6,MU,2023-11-07 19:06:23
236,padangsidempuan,1.3667,99.2667,22.57,100,100,0.77,ID,2023-11-07 19:06:24
237,dudinka,69.4058,86.1778,-10.18,92,100,12.96,RU,2023-11-07 19:06:25
238,bayanhongor,46.7167,100.1167,-20.63,85,30,1.89,MN,2023-11-07 19:06:27
239,ratodero,27.803,68.2871,24.62,36,58,0.8,PK,2023-11-07 19:06:28
240,al jawf,29.5,38.75,23.25,37,0,2.32,SA,2023-11-07 19:06:29
241,pucallpa,-8.3791,-74.5539,34.02,52,75,1.03,PE,2023-11-07 19:03:43
242,nishinoomote,30.7333,131.0,19.13,56,100,2.06,JP,2023-11-07 19:06:31
243,el alto,-4.2714,-81.2147,24.81,69,11,9.06,PE,2023-11-07 19:06:32
244,tangalle,6.024,80.7911,24.09,88,100,1.5,LK,2023-11-07 19:06:34
245,urangan,-25.3,152.9,21.2,67,100,5.99,AU,2023-11-07 19:06:35
246,tazovsky,67.4667,78.7,-4.48,96,100,6.33,RU,2023-11-07 19:06:36
247,tanjung pinang,0.9167,104.45,26.02,81,59,0.82,ID,2023-11-07 19:06:37
248,saint-francois,46.4154,3.9054,7.58,93,0,2.06,FR,2023-11-07 19:06:38
249,lihue,21.9789,-159.3672,25.77,81,75,8.23,US,2023-11-07 19:06:40
250,mana,5.6592,-53.7767,29.54,72,41,5.72,GF,2023-11-07 19:06:41
251,fukushima,37.75,140.4678,13.41,60,14,0.89,JP,2023-11-07 19:06:42
252,robertsport,6.7533,-11.3686,27.4,82,21,3.6,LR,2023-11-07 19:06:43
253,mahibadhoo,3.7833,72.9667,26.51,80,100,1.62,MV,2023-11-07 19:06:44
254,raduzhnyy,62.0961,77.475,-2.17,96,100,5.14,RU,2023-11-07 19:06:46
255,praia,14.9215,-23.5087,27.3,74,20,8.75,CV,2023-11-07 19:06:47
256,darnah,32.767,22.6367,21.05,77,0,1.41,LY,2023-11-07 19:06:48
257,pisco,-13.7,-76.2167,23.03,68,0,4.12,PE,2023-11-07 19:06:49
258,gordonvale,-17.0936,145.7842,23.88,99,100,1.68,AU,2023-11-07 19:03:48
259,inarajan village,13.2736,144.7484,28.08,93,39,5.5,GU,2023-11-07 19:06:52
260,enriquillo,17.9,-71.2333,29.75,66,10,4.1,DO,2023-11-07 19:06:54
261,general acha,-37.377,-64.6043,25.88,14,5,15.1,AR,2023-11-07 19:06:56
262,vadso,70.0744,29.7487,1.09,86,75,4.63,NO,2023-11-07 19:06:57
263,mumbwa,-14.9783,27.0619,25.28,49,100,3.06,ZM,2023-11-07 19:06:58
264,westport,41.1415,-73.3579,19.09,70,0,4.63,US,2023-11-07 19:05:58
265,iwanai,42.9744,140.5089,7.12,86,100,2.81,JP,2023-11-07 19:07:00
266,jesup,31.6074,-81.8854,27.96,28,0,2.06,US,2023-11-07 19:07:01
267,kruisfontein,-34.0033,24.7314,13.4,88,23,4.28,ZA,2023-11-07 19:07:02
268,brisas de zicatela,15.8369,-97.0419,31.29,48,40,4.12,MX,2023-11-07 19:07:04
269,delligsen,51.9412,9.8027,9.73,87,79,4.29,DE,2023-11-07 19:07:05
270,gulf shores,30.246,-87.7008,27.94,61,73,1.79,US,2023-11-07 19:04:50
271,murray bridge,-35.1167,139.2667,11.85,94,15,3.0,AU,2023-11-07 19:07:07
272,qaqortoq,60.7167,-46.0333,3.0,49,100,2.36,GL,2023-11-07 19:07:09
273,egilsstadir,65.2653,-14.3948,-0.05,93,100,1.03,IS,2023-11-07 19:03:26
274,boguchany,58.3814,97.4531,-10.64,99,91,1.34,RU,2023-11-07 19:07:12
275,lethem,3.3803,-59.7968,35.44,39,100,3.69,GY,2023-11-07 19:07:14
276,prince rupert,54.3161,-130.3201,5.05,93,100,6.69,CA,2023-11-07 19:07:16
277,temiskaming shores,47.4938,-79.7153,-2.11,75,100,5.84,CA,2023-11-07 19:07:17
278,gadzhiyevo,69.2551,33.3362,0.58,76,100,5.42,RU,2023-11-07 19:07:18
279,dubrovnik,42.6481,18.0922,17.8,94,100,7.2,HR,2023-11-07 19:07:19
280,meadow lakes,61.6247,-149.6011,-1.06,93,75,2.57,US,2023-11-07 19:07:20
281,arteche,12.2645,125.4048,27.11,88,100,5.06,PH,2023-11-07 19:07:21
282,south hedland,-20.4089,118.5983,24.96,53,2,3.09,AU,2023-11-07 19:07:23
283,pyrzyce,53.1462,14.8926,10.15,82,100,4.67,PL,2023-11-07 19:07:24
284,kristiansund,63.1115,7.732,6.36,87,75,0.0,NO,2023-11-07 19:07:25
285,diebougou,10.9667,-3.25,31.14,25,0,1.95,BF,2023-11-07 19:07:26
286,hanzhong,33.0728,107.0303,12.53,83,73,0.65,CN,2023-11-07 19:07:28
287,burutu,5.3509,5.5076,26.32,84,96,2.33,NG,2023-11-07 19:07:29
288,farah,32.5,62.5,16.75,53,100,0.63,AF,2023-11-07 19:07:30
289,aktobe,50.2797,57.2072,3.05,87,40,7.0,KZ,2023-11-07 19:07:32
290,hell-ville,-13.4,48.2667,27.38,72,8,2.41,MG,2023-11-07 19:07:33
291,dunedin,-45.8742,170.5036,10.45,82,80,0.89,NZ,2023-11-07 19:07:34
292,villa berthet,-27.2917,-60.4126,43.04,17,0,6.16,AR,2023-11-07 19:07:35
293,ancud,-41.8697,-73.8203,11.46,71,98,6.15,CL,2023-11-07 19:07:36
294,kailua-kona,19.6406,-155.9956,26.39,85,75,2.57,US,2023-11-07 19:07:37
295,labuan,5.2767,115.2417,27.65,77,62,1.03,MY,2023-11-07 19:07:39
296,aginskoye,51.1,114.53,-11.44,95,100,2.27,RU,2023-11-07 19:07:40
297,antsiranana,-12.2787,49.2917,25.4,80,9,6.4,MG,2023-11-07 19:07:26
298,dubai,25.2582,55.3047,28.96,51,40,2.06,AE,2023-11-07 19:04:59
299,fisterra,42.9049,-9.2629,12.64,65,100,6.68,ES,2023-11-07 19:07:45
300,paracuru,-3.41,-39.0306,28.39,61,27,6.14,BR,2023-11-07 19:07:47
301,samarinda,-0.5,117.15,23.45,98,71,0.72,ID,2023-11-07 19:07:48
302,sao jose do belmonte,-7.8614,-38.7597,33.67,29,70,0.89,BR,2023-11-07 19:07:49
303,pointe aux piments,-20.0628,57.5131,24.18,80,100,5.19,MU,2023-11-07 19:07:50
304,saldanha,-33.0117,17.9442,14.48,79,100,5.91,ZA,2023-11-07 19:07:52
305,ghat,24.9647,10.1728,25.46,12,6,2.96,LY,2023-11-07 19:07:53
306,acaponeta,22.4964,-105.3594,32.96,40,94,1.53,MX,2023-11-07 19:07:54
307,malpe,13.35,74.7167,27.61,90,100,1.6,IN,2023-11-07 19:07:55
308,port alfred,-33.5906,26.891,15.1,89,3,0.89,ZA,2023-11-07 19:07:56
309,sosnovyy bor,59.9,29.1167,7.55,91,98,4.92,RU,2023-11-07 19:07:57
310,freetown,8.484,-13.2299,26.94,83,76,2.8,SL,2023-11-07 19:07:59
311,polyarnyy,69.1989,33.4478,0.01,78,100,4.9,RU,2023-11-07 19:08:00
312,luderitz,-26.6481,15.1594,17.16,76,0,10.19,NA,2023-11-07 19:08:01
313,puerto lopez,4.0845,-72.956,28.57,71,85,1.23,CO,2023-11-07 19:08:02
314,fortuna foothills,32.6578,-114.4119,28.16,24,0,5.14,US,2023-11-07 19:08:04
315,ingeniero jacobacci,-41.3427,-69.5448,14.49,31,60,13.34,AR,2023-11-07 19:08:05
316,wellington,-41.2866,174.7756,11.15,88,100,7.2,NZ,2023-11-07 18:56:45
317,nadym,65.5333,72.5167,-0.18,96,100,3.15,RU,2023-11-07 19:08:07
318,presidente epitacio,-21.7633,-52.1156,35.55,22,5,3.62,BR,2023-11-07 19:08:08
319,olonets,60.9847,32.9698,4.36,97,100,1.2,RU,2023-11-07 19:08:09
320,tarinkot,32.6268,65.8733,14.0,58,100,0.95,AF,2023-11-07 19:08:11
321,koryazhma,61.3143,47.1691,6.06,96,93,3.13,RU,2023-11-07 19:08:12
322,mahdia,35.5047,11.0622,22.97,79,91,9.35,TN,2023-11-07 19:08:13
323,geraldton,-28.7667,114.6,15.23,88,4,3.09,AU,2023-11-07 19:07:59
324,lunino,53.5918,45.2271,8.5,93,85,4.23,RU,2023-11-07 19:08:15
325,novaya igirma,57.1334,103.9112,-14.29,98,95,0.97,RU,2023-11-07 19:08:16
326,turinskaya sloboda,57.6232,64.3858,-0.19,89,99,2.78,RU,2023-11-07 19:08:17
327,daru,-9.0763,143.2092,25.33,86,93,4.72,PG,2023-11-07 19:08:18
328,north bend,43.4065,-124.2243,12.31,100,100,2.57,US,2023-11-07 19:08:19
329,nova sintra,14.8667,-24.7167,23.84,72,94,7.81,CV,2023-11-07 19:08:20
330,murashi,59.3999,48.9615,5.27,98,100,2.35,RU,2023-11-07 19:08:21
331,port douglas,-16.4833,145.4667,23.77,84,72,3.15,AU,2023-11-07 19:08:23
332,kavieng,-2.5744,150.7967,28.32,78,100,6.36,PG,2023-11-07 19:08:24
333,keflavik,64.0049,-22.5624,4.24,70,40,8.75,IS,2023-11-07 19:08:26
334,spas-demensk,54.4122,34.0226,6.66,92,96,4.18,RU,2023-11-07 19:08:27
335,konarka,19.9,86.1167,23.22,70,7,1.31,IN,2023-11-07 19:08:28
336,nyaunglebin,17.95,96.7333,23.78,92,68,1.31,MM,2023-11-07 19:08:29
337,prymors'k,46.7348,36.3443,11.78,63,100,2.8,UA,2023-11-07 19:08:31
338,dakhla,23.6848,-15.958,20.53,71,0,11.64,EH,2023-11-07 19:08:32
339,toropets,56.4978,31.6353,7.25,89,99,3.29,RU,2023-11-07 19:08:33
340,jinka,5.65,36.65,18.56,84,90,0.56,ET,2023-11-07 19:08:35
341,tsiroanomandidy,-18.7667,46.0333,20.51,89,94,1.55,MG,2023-11-07 19:07:25
342,mount isa,-20.7333,139.5,20.87,64,6,0.0,AU,2023-11-07 19:08:37
343,ambovombe,-25.1667,46.0833,23.62,74,2,2.43,MG,2023-11-07 19:08:38
344,krasnoural'sk,58.3638,60.0407,-0.06,91,100,1.95,RU,2023-11-07 19:08:39
345,xianyang,34.3378,108.7026,11.79,57,4,1.45,CN,2023-11-07 19:08:40
346,pokaran,26.9167,71.9167,27.02,25,1,3.26,IN,2023-11-07 19:08:41
347,kosonsoy,41.2561,71.5508,10.31,27,100,2.58,UZ,2023-11-07 19:08:42
348,new norfolk,-42.7826,147.0587,12.72,98,100,0.97,AU,2023-11-07 19:08:44
349,sitia,35.2,26.0986,22.21,73,0,0.73,GR,2023-11-07 19:08:45
350,saurimo,-9.6608,20.3916,22.29,77,44,0.87,AO,2023-11-07 19:08:46
351,dryden,49.7833,-92.7503,-0.47,73,9,4.63,CA,2023-11-07 19:08:48
352,gargalianoi,37.0667,21.6333,18.53,73,0,3.96,GR,2023-11-07 19:08:49
353,bengkulu,-3.8004,102.2655,23.96,96,100,0.96,ID,2023-11-07 19:08:50
354,tadine,-21.55,167.8833,21.18,75,94,8.01,NC,2023-11-07 19:08:51
355,jaru,-10.4389,-62.4664,29.21,68,99,1.6,BR,2023-11-07 19:05:03
356,zhanaozen,43.3,52.8,11.65,82,0,6.06,KZ,2023-11-07 19:08:53
357,nema,57.5067,50.5011,5.29,99,100,2.27,RU,2023-11-07 19:08:54
358,island harbour,50.724,-1.2758,10.55,83,0,0.89,GB,2023-11-07 19:08:55
359,palikir - national government center,6.9248,158.1611,26.41,89,100,3.6,FM,2023-11-07 19:08:56
360,nguigmi,14.2495,13.1092,29.54,18,100,4.08,NE,2023-11-07 19:08:57
361,uchiza,-8.4592,-76.4633,33.89,47,86,0.2,PE,2023-11-07 19:08:59
362,portland,45.5234,-122.6762,13.38,90,40,4.12,US,2023-11-07 18:56:36
363,puerto lempira,15.2667,-83.7667,28.47,81,100,3.53,HN,2023-11-07 19:09:01
364,maintirano,-18.0667,44.0167,26.56,83,0,1.98,MG,2023-11-07 19:09:02
365,bouznika,33.7894,-7.1597,16.38,53,5,6.27,MA,2023-11-07 19:09:04
366,tulun,54.5611,100.5792,-14.39,97,35,1.4,RU,2023-11-07 19:09:05
367,nogliki,51.8333,143.1667,-0.92,67,100,6.26,RU,2023-11-07 19:09:06
368,tsiombe,-25.3,45.4833,24.01,74,5,1.61,MG,2023-11-07 19:09:07
369,balkanabat,39.5108,54.3671,17.89,73,93,6.3,TM,2023-11-07 19:09:09
370,nova vicosa,-17.8919,-39.3719,25.06,60,0,5.77,BR,2023-11-07 19:05:02
371,anadyr,64.75,177.4833,-11.72,79,20,4.0,RU,2023-11-07 19:09:11
372,vylkove,45.4021,29.586,14.9,77,100,3.83,UA,2023-11-07 19:09:12
373,hats'avan,39.4641,45.9705,6.29,89,4,1.47,AM,2023-11-07 19:09:13
374,novyy urgal,51.0736,132.5642,-8.6,88,100,0.93,RU,2023-11-07 19:09:15
375,siwa oasis,29.2041,25.5195,25.01,41,0,2.33,EG,2023-11-07 19:09:17
376,turiacu,-1.6633,-45.3717,29.86,62,88,3.69,BR,2023-11-07 19:09:18
377,phan rang-thap cham,11.5667,108.9833,25.02,83,100,1.83,VN,2023-11-07 19:09:20
378,namibe,-15.1961,12.1522,20.14,73,0,3.19,AO,2023-11-07 19:09:21
379,siasi,5.5462,120.8145,28.65,74,100,2.19,PH,2023-11-07 19:09:24
380,buka,40.8108,69.1986,17.32,44,100,2.3,UZ,2023-11-07 19:06:56
381,floro,61.5996,5.0328,6.98,76,75,2.06,NO,2023-11-07 19:09:26
382,bugul'ma,54.55,52.8,6.07,75,100,2.31,RU,2023-11-07 19:07:00
383,dawesville,30.9224,-84.0091,27.42,33,0,1.54,US,2023-11-07 19:09:28
384,siddipet,18.1,78.85,23.41,80,92,1.85,IN,2023-11-07 19:09:29
385,kemijarvi,66.7131,27.4306,-0.4,98,100,1.6,FI,2023-11-07 19:09:30
386,timimoun,29.2639,0.231,25.86,16,29,6.86,DZ,2023-11-07 19:09:32
387,ujae,8.9322,165.7642,28.28,79,78,7.86,MH,2023-11-07 19:09:33
388,hithadhoo,-0.6,73.0833,27.1,76,100,2.89,MV,2023-11-07 19:09:34
389,usogorsk,63.4106,48.6872,3.7,99,100,3.31,RU,2023-11-07 19:09:35
390,sao cristovao,-11.0147,-37.2064,27.95,74,20,4.63,BR,2023-11-07 19:09:36
391,aripuana,-9.1667,-60.6333,34.87,43,83,0.89,BR,2023-11-07 19:09:38
392,badger,64.8,-147.5333,-7.79,91,100,0.0,US,2023-11-07 19:09:39
393,fale old settlement,-9.3852,-171.2468,28.94,72,77,6.87,TK,2023-11-07 19:09:40
394,noshiro,40.2039,140.0242,9.93,66,100,6.58,JP,2023-11-07 19:09:42
395,kokopo,-4.352,152.2633,25.29,87,82,1.64,PG,2023-11-07 19:09:43
396,tuba city,36.135,-111.2399,24.1,19,0,9.39,US,2023-11-07 19:09:46
397,kimbe,-5.5502,150.1429,24.25,90,67,1.91,PG,2023-11-07 19:09:47
398,dancu,46.7592,28.2089,13.89,61,17,2.61,MD,2023-11-07 19:09:48
399,murun-kuren,49.6342,100.1625,-11.29,73,99,1.73,MN,2023-11-07 19:09:49
400,fortuna,40.5982,-124.1573,14.96,84,0,0.0,US,2023-11-07 19:09:50
401,kralendijk,12.15,-68.2667,31.99,66,20,3.09,BQ,2023-11-07 19:09:51
402,zaozersk,69.4005,32.4476,-0.86,85,100,3.5,RU,2023-11-07 19:09:52
403,longido,-2.7333,36.6833,20.94,75,100,2.59,TZ,2023-11-07 19:09:54
404,northam,51.0333,-4.2167,10.37,89,100,4.86,GB,2023-11-07 19:09:55
405,pailon,-17.65,-62.75,39.5,20,100,6.33,BO,2023-11-07 19:09:56
406,srivardhan,18.0333,73.0167,25.84,67,26,1.71,IN,2023-11-07 19:09:57
407,zhangye,38.9342,100.4517,2.74,36,79,0.96,CN,2023-11-07 19:09:59
408,santo antonio,-6.3106,-35.4789,30.58,42,9,7.55,BR,2023-11-07 19:10:00
409,charters towers,-20.1,146.2667,19.17,95,47,4.25,AU,2023-11-07 19:10:01
410,mahina,-17.5065,-149.489,27.87,74,75,2.57,PF,2023-11-07 19:10:02
411,sinabang,2.4803,96.3801,25.52,86,100,1.37,ID,2023-11-07 19:10:04
412,manali,13.1667,80.2667,26.71,88,93,1.62,IN,2023-11-07 19:10:06
413,minas de marcona,-15.2119,-75.1103,18.51,60,14,7.9,PE,2023-11-07 19:10:07
414,weno,7.4515,151.8468,25.97,94,100,1.54,FM,2023-11-07 19:10:09
415,pangody,65.85,74.4859,-0.04,98,99,3.5,RU,2023-11-07 19:10:10
416,shimoda,34.6667,138.95,17.13,67,0,5.8,JP,2023-11-07 19:10:11
417,gazojak,41.1875,61.4036,16.82,34,45,0.74,TM,2023-11-07 19:10:13
418,shenjiamen,29.9576,122.298,17.91,70,100,5.63,CN,2023-11-07 19:10:14
419,santa marinella,42.0345,11.8536,15.95,92,100,3.25,IT,2023-11-07 19:10:15
420,punta cana,18.5818,-68.4043,29.51,64,59,3.28,DO,2023-11-07 19:06:44
421,mezhdurechenskiy,59.6,65.9333,1.06,91,100,2.69,RU,2023-11-07 19:10:19
422,fort mcmurray,56.7268,-111.381,3.82,83,97,1.22,CA,2023-11-07 19:10:21
423,el salto,20.3333,-104.5,28.38,27,51,1.04,MX,2023-11-07 19:10:23
424,wladyslawowo,54.7909,18.4009,11.07,74,100,7.09,PL,2023-11-07 19:10:24
425,mutoko,-17.397,32.2268,26.28,34,100,0.72,ZW,2023-11-07 19:10:26
426,hampton bays,40.869,-72.5176,18.33,77,0,5.81,US,2023-11-07 19:06:08
427,sevastopol,44.6,33.5333,15.72,52,100,2.42,UA,2023-11-07 19:08:01
428,wagar,16.1525,36.2032,28.83,54,19,8.81,SD,2023-11-07 19:10:34
429,pandan,14.0453,124.1694,27.07,86,100,5.91,PH,2023-11-07 19:10:37
430,machico,32.7,-16.7667,19.84,68,20,5.14,PT,2023-11-07 19:10:39
431,beaconsfield,45.4334,-73.8659,8.51,77,100,3.13,CA,2023-11-07 19:10:41
432,san julian,21.0167,-102.1667,25.39,17,100,2.05,MX,2023-11-07 19:10:42
433,guiuan,11.0333,125.7247,28.75,81,100,9.32,PH,2023-11-07 19:10:43
434,cabedelo,-6.9811,-34.8339,28.37,63,16,6.08,BR,2023-11-07 19:10:45
435,coahuayana de hidalgo,18.7,-103.6583,31.6,63,22,2.15,MX,2023-11-07 19:10:46
436,haiku-pauwela,20.9219,-156.3051,25.84,81,40,7.72,US,2023-11-07 19:10:47
437,kingston,17.997,-76.7936,29.0,78,98,0.46,JM,2023-11-07 19:09:58
438,petropavlovsk-kamchatsky,53.0452,158.6483,-5.3,60,75,7.6,RU,2023-11-07 19:10:50
439,onguday,50.75,86.15,-5.29,97,96,0.86,RU,2023-11-07 19:10:51
440,khambhaliya,22.2072,69.6683,27.47,46,2,2.69,IN,2023-11-07 19:10:53
441,alofi,-19.0595,-169.9187,25.94,69,40,4.63,NU,2023-11-07 19:10:55
442,kloulklubed,7.0419,134.2556,25.28,74,14,2.31,PW,2023-11-07 19:10:57
443,holualoa,19.6228,-155.9522,24.88,82,75,2.57,US,2023-11-07 19:10:58
444,meadow lake,34.8014,-106.5436,23.72,15,0,5.05,US,2023-11-07 19:10:59
445,malabar,-33.9667,151.25,17.29,84,38,0.0,AU,2023-11-07 19:11:01
446,crete,35.1558,24.895,14.47,87,8,0.9,GR,2023-11-07 19:11:03
447,polovinnoye,54.7914,65.9864,1.98,68,98,3.41,RU,2023-11-07 19:11:04
448,los frentones,-26.4077,-61.4137,44.11,16,6,6.44,AR,2023-11-07 19:11:06
449,posto fiscal rolim de moura,-13.0833,-62.2667,40.73,23,100,1.14,BR,2023-11-07 19:09:45
450,sylacauga,33.1732,-86.2516,27.1,36,40,3.09,US,2023-11-07 19:11:08
451,banepa,27.6298,85.5214,12.34,88,20,0.0,NP,2023-11-07 19:11:09
452,batang,-6.4846,110.7083,26.78,83,100,1.52,ID,2023-11-07 19:11:11
453,motueka,-41.1333,173.0167,10.61,82,17,0.89,NZ,2023-11-07 19:11:12
454,rivne,50.6231,26.2274,9.48,90,0,2.74,UA,2023-11-07 19:11:13
455,punta de bombon,-17.1717,-71.7931,20.01,73,45,4.23,PE,2023-11-07 19:11:16
456,kamen'-na-obi,53.7884,81.3423,-5.97,100,95,2.05,RU,2023-11-07 19:11:17
457,aioun,16.6614,-9.6149,30.88,18,78,4.06,MR,2023-11-07 19:11:18
458,lyantor,61.6195,72.1555,-1.95,92,100,3.65,RU,2023-11-07 19:11:19
459,iskateley,67.6803,53.1512,0.57,100,100,4.02,RU,2023-11-07 19:11:20
460,east london,-33.0153,27.9116,18.05,69,73,6.22,ZA,2023-11-07 19:11:22
461,la ronge,55.1001,-105.2842,-0.86,86,100,3.6,CA,2023-11-07 19:11:23
462,bidart,43.4376,-1.5913,12.46,76,75,3.6,FR,2023-11-07 19:11:24
463,kill devil hills,36.0307,-75.676,23.01,47,0,3.6,US,2023-11-07 19:11:26
464,ciudad lazaro cardenas,17.9583,-102.2,29.84,70,34,2.21,MX,2023-11-07 19:11:27
465,seven pagodas,12.6264,80.1722,26.7,82,99,2.7,IN,2023-11-07 19:11:30
466,vanino,49.0869,140.2543,-2.82,81,100,4.3,RU,2023-11-07 19:11:32
467,rio negrinho,-26.2544,-49.5183,21.63,42,0,2.15,BR,2023-11-07 19:11:35
468,sungai raya,0.7,108.9,25.3,91,69,2.26,ID,2023-11-07 19:11:37
469,arauco,-37.2463,-73.3175,14.24,69,46,3.25,CL,2023-11-07 19:11:39
470,ketchikan,55.3422,-131.6461,7.41,93,100,2.57,US,2023-11-07 19:11:40
471,el abiodh sidi cheikh,32.893,0.5484,13.57,41,45,7.98,DZ,2023-11-07 19:11:41
472,okha,53.5739,142.9478,-2.81,69,100,4.54,RU,2023-11-07 19:11:43
473,shakawe,-18.3667,21.85,26.9,49,85,2.2,BW,2023-11-07 19:11:46
474,las tablas,7.7667,-80.2833,29.45,74,100,3.42,PA,2023-11-07 19:11:48
475,namsos,64.4662,11.4957,4.03,93,75,4.12,NO,2023-11-07 19:11:49
476,najran,17.4924,44.1277,22.36,36,84,4.15,SA,2023-11-07 19:11:50
477,zahedan,29.4963,60.8629,16.38,60,91,2.42,IR,2023-11-07 19:11:52
478,sirjan,29.452,55.6814,14.15,41,15,1.3,IR,2023-11-07 19:11:53
479,letlhakeng,-24.0944,25.0298,23.58,26,0,2.67,BW,2023-11-07 19:11:54
480,umba,66.6871,34.3429,0.58,86,100,5.57,RU,2023-11-07 19:11:56
481,benghazi,32.1167,20.0667,23.33,66,0,5.18,LY,2023-11-07 19:11:57
482,bathsheba,13.2167,-59.5167,29.34,84,40,7.2,BB,2023-11-07 19:11:59
483,castillos,-34.1667,-53.8333,24.21,68,9,5.54,UY,2023-11-07 19:12:01
484,medan,3.5833,98.6667,26.02,100,75,1.54,ID,2023-11-07 19:12:02
485,alesund,62.4723,6.1549,9.31,92,75,2.06,NO,2023-11-07 19:09:46
486,hengchun,22.0042,120.7439,23.85,76,72,9.55,TW,2023-11-07 19:12:05
487,leh,34.1667,77.5833,0.94,37,68,1.35,IN,2023-11-07 19:12:07
488,lagunas,-5.2269,-75.6753,32.54,48,87,1.1,PE,2023-11-07 19:12:08
489,cannonvale,-20.2833,148.7,23.66,80,46,4.5,AU,2023-11-07 19:12:10
490,ashburton,-37.8626,145.0794,17.79,79,4,3.5,AU,2023-11-07 19:12:12
491,baruun-urt,46.6806,113.2792,-19.05,92,7,2.97,MN,2023-11-07 19:12:13
492,taroa,8.7058,171.2275,27.98,79,100,9.2,MH,2023-11-07 19:12:15
493,severo-yeniseyskiy,60.3725,93.0408,-18.25,98,25,1.48,RU,2023-11-07 19:12:17
494,smithers,54.7804,-127.1743,3.18,70,75,1.54,CA,2023-11-07 19:12:18
495,carmagnola,44.847,7.718,11.7,88,0,0.33,IT,2023-11-07 19:12:19
496,segou,13.4317,-6.2157,33.5,24,84,1.81,ML,2023-11-07 19:12:21
497,ulanhot,46.0833,122.0833,-6.52,87,100,1.75,CN,2023-11-07 19:12:22
498,andkhoy,36.9529,65.1238,21.93,35,100,6.61,AF,2023-11-07 19:12:23
499,howrah,22.5892,88.3103,25.0,73,13,0.0,IN,2023-11-07 19:12:25
500,uzhur,55.3036,89.8339,-11.97,99,85,1.35,RU,2023-11-07 19:12:26
501,khandyga,62.6667,135.6,-34.42,100,25,0.5,RU,2023-11-07 19:12:28
502,sumbe,-11.2061,13.8437,25.76,83,36,2.9,AO,2023-11-07 19:12:30
503,suhbaatar,50.2314,106.2078,-12.46,80,100,1.69,MN,2023-11-07 19:12:31
504,abengourou,6.7297,-3.4964,23.48,96,85,0.33,CI,2023-11-07 19:12:32
505,lata,40.1629,-8.3327,14.9,89,100,0.36,PT,2023-11-07 19:12:34
506,vetapalem,15.7833,80.3167,25.76,86,78,3.15,IN,2023-11-07 19:12:35
507,kurmuk,10.55,34.2833,23.06,86,78,1.64,SD,2023-11-07 19:12:36
508,shimanovsk,52.0,127.7,-11.79,83,100,2.17,RU,2023-11-07 19:12:38
509,malanje,-9.5402,16.341,19.81,91,99,1.74,AO,2023-11-07 19:12:41
510,asind,25.7333,74.3333,23.52,29,46,1.93,IN,2023-11-07 19:12:43
511,nizhniy odes,63.6445,54.856,1.73,100,100,3.16,RU,2023-11-07 19:12:44
512,gavle,60.6745,17.1417,6.86,99,100,2.0,SE,2023-11-07 19:12:46
513,chegdomyn,51.1167,133.0167,-8.58,78,100,0.84,RU,2023-11-07 19:12:47
514,portage la prairie,49.9728,-98.2926,0.06,85,100,6.69,CA,2023-11-07 19:09:28
515,fethiye,36.6217,29.1164,17.93,79,0,0.9,TR,2023-11-07 19:12:50
516,bereket,39.2446,55.5154,18.0,81,100,3.82,TM,2023-11-07 19:12:51
517,chitose,42.8194,141.6522,7.83,87,75,5.66,JP,2023-11-07 19:12:52
518,praia da vitoria,38.7333,-27.0667,20.42,83,20,10.01,PT,2023-11-07 19:12:53
519,choyr,46.3611,108.3611,-18.68,96,77,2.28,MN,2023-11-07 19:12:54
520,mani,4.8172,-72.2886,30.41,59,58,1.61,CO,2023-11-07 19:12:55
521,dwarka,22.2394,68.9678,28.15,55,0,3.44,IN,2023-11-07 19:12:56
522,ohara,35.25,140.3833,17.12,64,16,6.99,JP,2023-11-07 19:12:57
523,mogocha,53.7333,119.7667,-10.11,59,100,2.3,RU,2023-11-07 19:12:58
524,naze,28.3667,129.4833,18.63,69,44,4.93,JP,2023-11-07 19:12:59
525,qa'en,33.7265,59.1844,13.14,57,75,0.79,IR,2023-11-07 19:13:01
526,yala,6.3333,101.25,25.89,97,93,0.59,TH,2023-11-07 19:13:02
527,pilani,28.3684,75.6041,23.65,27,2,2.08,IN,2023-11-07 19:13:03
528,taseyevo,57.2169,94.8978,-14.81,99,96,0.45,RU,2023-11-07 19:13:05
529,ubari,26.5921,12.7805,24.37,17,4,2.23,LY,2023-11-07 19:13:06
530,oltu,40.5498,42.0013,7.77,90,4,1.24,TR,2023-11-07 19:13:07
531,fuerte olimpo,-21.0415,-57.8738,43.94,13,2,3.44,PY,2023-11-07 19:13:08
532,san antonio de pale,-1.4014,5.6325,26.37,80,33,6.02,GQ,2023-11-07 19:13:09
533,labytnangi,66.6572,66.4183,0.41,98,100,1.52,RU,2023-11-07 19:13:10
534,eynesil,41.0645,39.1438,16.88,66,0,2.36,TR,2023-11-07 19:13:11
535,tadmur,34.5608,38.2805,20.5,48,0,2.13,SY,2023-11-07 19:09:11
536,diapaga,12.0708,1.7889,30.48,20,16,2.84,BF,2023-11-07 19:13:14
537,paraguacu paulista,-22.4128,-50.5758,33.35,24,1,2.38,BR,2023-11-07 19:13:15
538,plastun,44.7561,136.2939,-6.03,85,9,3.87,RU,2023-11-07 19:13:16
539,el charco,2.4769,-78.1105,29.19,74,100,3.75,CO,2023-11-07 19:13:19
540,qarauyl,48.9451,79.255,0.29,33,62,0.5,KZ,2023-11-07 19:13:20
541,caluso,45.305,7.8957,10.33,79,22,1.51,IT,2023-11-07 19:13:21
542,san pedro pochutla,15.7333,-96.4667,32.84,58,71,3.27,MX,2023-11-07 19:13:22
543,posse,-14.0931,-46.3694,33.21,27,46,3.69,BR,2023-11-07 19:12:47
544,houlton,46.1262,-67.8403,10.23,94,100,3.09,US,2023-11-07 19:13:24
545,benguela,-12.5763,13.4055,25.26,69,82,2.44,AO,2023-11-07 19:13:25
546,same,-4.0667,37.7333,21.85,90,100,1.48,TZ,2023-11-07 19:13:27
547,boyolangu,-8.1181,111.8935,24.26,90,100,0.72,ID,2023-11-07 19:13:28
548,bel ombre,-4.6167,55.4167,26.91,83,20,3.6,SC,2023-11-07 19:13:29
549,eyl,7.9803,49.8164,26.4,79,100,7.06,SO,2023-11-07 19:08:52
550,belmonte,-15.8631,-38.8828,25.51,62,15,6.06,BR,2023-11-07 19:13:31
551,banff,51.1762,-115.5698,5.57,70,99,4.12,CA,2023-11-07 19:13:33
552,nguruka,-5.1092,31.0419,19.96,88,100,0.57,TZ,2023-11-07 19:13:34
553,alo,7.4178,6.7371,26.9,83,95,1.88,NG,2023-11-07 19:13:36
554,leeton,-34.5667,146.4,18.94,78,85,2.52,AU,2023-11-07 19:13:37
555,caucete,-31.6518,-68.2811,36.76,10,0,10.14,AR,2023-11-07 19:13:38
556,puerto del rosario,28.5004,-13.8627,21.86,56,40,11.83,ES,2023-11-07 19:13:39
557,cidreira,-30.1811,-50.2056,20.8,74,0,9.15,BR,2023-11-07 19:13:41
558,hasaki,35.7333,140.8333,11.22,59,6,6.63,JP,2023-11-07 19:13:42
559,lingig,8.0389,126.4125,25.46,93,100,1.92,PH,2023-11-07 19:13:43
560,nabire,-3.3667,135.4833,24.72,92,100,1.54,ID,2023-11-07 19:13:44
561,cacheu,12.2706,-16.1658,27.05,63,5,3.15,GW,2023-11-07 19:13:45
562,merta,26.65,74.0333,22.95,31,0,2.27,IN,2023-11-07 19:13:46
563,lorengau,-2.0226,147.2712,27.4,85,98,5.11,PG,2023-11-07 19:13:48
564,goondiwindi,-28.55,150.3167,16.59,81,50,5.36,AU,2023-11-07 19:13:49
